[
  {
    "Region": "East Bay",
    "Name": "North Berkeley Farmers' Market",
    "Address": "Shattuck Ave at Rose St\nBerkeley, CA 94701",
    "Lat": 37.882023,
    "Lng": "-122.2695709",
    "Website": "http://ecologycenter.org/fm/",
    "Season": "Year-round",
    "Hours": "Thursday, 3-7 p.m.",
    "Special features": "The Ecology Center Farmers’ Markets were the first in the country to eliminate all plastic bags and packaging from their weekly markets.",
    "Notes": "Run by Ecology Center Farmers' Market",
    "confirmed": "CQ"
  },
  {
    "Region": "East Bay",
    "Name": "Downtown Berkeley Farmers' Market",
    "Address": "Center St and Martin Luther King Jr Way\nBerkeley, CA 94702",
    "Lat": 37.8696915,
    "Lng": "-122.2727922",
    "Website": "http://ecologycenter.org/fm/",
    "Season": "Year-round",
    "Hours": "Saturday, 10 a.m.-3 p.m.",
    "Special features": "The Ecology Center Farmers’ Markets were the first in the country to eliminate all plastic bags and packaging from their weekly markets.",
    "Notes": "Run by Ecology Center Farmers' Market",
    "confirmed": "CQ"
  },
  {
    "Region": "East Bay",
    "Name": "South Berkeley Farmers' Market",
    "Address": "Adeline St at 63rd\nBerkeley, CA 94701",
    "Lat": 37.8477611,
    "Lng": "-122.2719224",
    "Website": "http://ecologycenter.org/fm/",
    "Season": "Year-round",
    "Hours": "Tuesday, 2-6:30 p.m.",
    "Special features": "The Ecology Center Farmers’ Markets were the first in the country to eliminate all plastic bags and packaging from their weekly markets.",
    "Notes": "Run by Ecology Center Farmers' Market",
    "confirmed": "CQ"
  },
  {
    "Region": "East Bay",
    "Name": "Temescal Farmers' Market",
    "Address": "5300 Claremont Ave., Oakland, CA  94618",
    "Lat": 37.8395816,
    "Lng": "-122.2597996",
    "Website": "http://uvfm.org/temescal-sunday/",
    "Season": "Year-round",
    "Hours": "Sunday, 9 a.m.-1 p.m.",
    "Notes": "Run by Urban Village Famers Market Association",
    "confirmed": "CQ"
  },
  {
    "Region": "East Bay",
    "Name": "Grand Lake Farmers Market",
    "Address": "Lake Park Ave, Oakland, CA 94610",
    "Lat": 37.8100072,
    "Lng": "-122.2460618",
    "Website": "https://www.agriculturalinstitute.org/directory/listing-details/grand-lake-oakland",
    "Season": "Year-round",
    "Hours": "Saturday, 9 a.m.-2 p.m.",
    "Special features": "70+ vendors",
    "Notes": "Run by Agricultural Institute of Marin",
    "confirmed": "CQ"
  },
  {
    "Region": "East Bay",
    "Name": "Alameda Farmers' Market",
    "Address": " 700 Haight Ave, Alameda, CA 94501",
    "Lat": 37.774248,
    "Lng": "-122.2767621",
    "Website": "http://www.pcfma.org/",
    "Season": "Year-round",
    "Hours": "Tuesday & Saturday, 9 a.m.-1 p.m.",
    "Notes": "Run by PCFMA",
    "confirmed": "CQ"
  },
  {
    "Region": "East Bay",
    "Name": "Concord Farmers' Market",
    "Address": "2175 Willow Pass Rd., Concord, CA  94520",
    "Lat": 37.976872,
    "Lng": "-122.0334961",
    "Website": "http://www.pcfma.org/",
    "Season": "Tuesday market is year-round; Thursday market is April-October",
    "Hours": "Tuesday, 10 a.m.-2 p.m.; Thursday, 4-8 p.m.",
    "Special features": "Thursday market returns 4/20",
    "Notes": "Run by PCFMA",
    "confirmed": "CQ"
  },
  {
    "Region": "East Bay",
    "Name": "Danville Farmers' Market",
    "Address": "205 Railroad Ave., Danville, CA  94526",
    "Lat": 37.8207729,
    "Lng": "-122.0004924",
    "Website": "http://www.pcfma.org/",
    "Season": "Year-round",
    "Hours": "Saturday, 9 a.m.-1 p.m.",
    "Notes": "Run by PCFMA",
    "confirmed": "CQ"
  },
  {
    "Region": "East Bay",
    "Name": "San Leandro Farmers' Market at Bayfair Center",
    "Address": "Bayfair Center, 15555 E 14th St, San Leandro, CA 94578",
    "Lat": 37.7005884,
    "Lng": "-122.1257777",
    "Website": "http://www.cafarmersmkts.com/san-leandro-bayfair-farmers-market",
    "Season": "Year-round",
    "Hours": "Saturday, 9 a.m.-1 p.m.",
    "Special features": "45+ vendors; established in 1994; accessible from Bayfair BART station",
    "Notes": "Run by California Farmers' Markets Association"
  },
  {
    "Region": "East Bay",
    "Name": "Downtown San Leandro Farmers' Market",
    "Address": "135 Parrott St,San Leandro, CA,94577",
    "Lat": 37.7219953,
    "Lng": "-122.1536217",
    "Website": "http://www.pcfma.org/",
    "Season": "April-October",
    "Hours": "Wednesday, 4-8 p.m.",
    "Special features": "Starts back up 4/5",
    "Notes": "Run by PCFMA",
    "confirmed": "CQ"
  },
  {
    "Region": "East Bay",
    "Name": "Jack London Square Farmers Market",
    "Address": "472 Water St, Oakland, CA 94607",
    "Lat": 37.7949959,
    "Lng": "-122.2777872",
    "Website": "http://www.cuesa.org/",
    "Season": "Year-round",
    "Hours": "Sunday, 9 a.m.-2 p.m.",
    "Notes": "Run by CUESA",
    "confirmed": "CQ"
  },
  {
    "Region": "East Bay",
    "Name": "Old Oakland Farmers' Market",
    "Address": "Broadway & 9th St, Oakland, CA 94607",
    "Lat": 37.8008817,
    "Lng": "-122.2732937",
    "Website": "http://uvfm.org/old-oakland-fridays/",
    "Season": "Year-round",
    "Hours": "Friday, 8 a.m.-2 p.m.",
    "Notes": "Run by Urban Village Farmers Market Association",
    "confirmed": "CQ"
  },
  {
    "Region": "East Bay",
    "Name": "\"Feel the Beet!\" Farmers Market",
    "Address": "970 Grace Ave Oakland, CA 94608",
    "Lat": 37.842686,
    "Lng": "-122.2780362",
    "Website": "http://www.phatbeetsproduce.org/",
    "Season": "Year-round",
    "Hours": "Saturday, 9:30 a.m.-2:30 p.m.",
    "Notes": "Run by Phat Beets. Phat Beets Produce is a food justice collective. The collective was started in North Oakland in 2007 as a guerrilla produce stand in a North Oakland park. As a collective, we strive to support social enterprise businesses and small & minority farmers.",
    "confirmed": "CQ - CDFA llst"
  },
  {
    "Region": "East Bay",
    "Name": "Oakland Children's Hospital Farmers Market",
    "Address": "747 52nd St., Oakland, CA 94609",
    "Lat": 37.8368996,
    "Lng": "-122.2671455",
    "Website": "http://www.phatbeetsproduce.org/",
    "Season": "Year-round",
    "Hours": "Tuesday, 2-6 p.m.",
    "Notes": "Run by Phat Beets",
    "confirmed": "CQ - CDFA llst"
  },
  {
    "Region": "East Bay",
    "Name": "Freedom Farmers Market",
    "Address": "5316 Telegraph Ave, Oakland, CA 94609",
    "Lat": 37.8388566,
    "Lng": "-122.2617897",
    "Website": "http://www.freedomfarmersmarket.com/",
    "Season": "June-November; close first sat before thanksgiving; begin a CSA program during the off months ",
    "Hours": "Saturday, 10 a.m.-3 p.m.",
    "Special features": "considering a relocation -- been challenged by sits in parking lot back from the street (hard to see) move closer to bart WILL CONFIRM NEXT WEEK; ",
    "Notes": "Their mission is to bring traditional legacy foods from Black farmers and other Under-represented farmers to the Bay Area with the goal of making regionally Non GMO, fresh organic or pesticide \nfree produce and nutritional information accessible in areas devoid of supermarkets. http://www.farmstogrow.com/freedomfarmersmarket",
    "confirmed": "em to follow-up 3/29"
  },
  {
    "Region": "East Bay",
    "Name": "Castro Valley ",
    "Address": "Redwood Rd & Norbridge Ave, Castro Valley, CA 94546",
    "Lat": 37.6926734,
    "Lng": "-122.0739463",
    "Website": "http://uvfm.org/castro-valley-saturdays/",
    "Season": "Year-round",
    "Hours": "Saturday 10 a.m.-2 p.m.",
    "Special features": "At the Castro Valley BART Station.",
    "Notes": "Run by Urban Village Farmers Market Association",
    "confirmed": "CQ"
  },
  {
    "Region": "East Bay",
    "Name": "Montclair Village Farmers Market",
    "Address": "Moraga Ave & La Salle Ave, Oakland, CA 94611",
    "Lat": 37.82626,
    "Lng": "-122.209923",
    "Website": "http://uvfm.org/montclair-village-sundays/",
    "Season": "Year-round",
    "Hours": "Sunday, 9 a.m.-1 p.m.",
    "Special features": "Started in 2005; 40+ vendors",
    "Notes": "Run by Urban Village Farmers Market Association",
    "confirmed": "CQ"
  },
  {
    "Region": "East Bay",
    "Name": "Newark Farmers' Market",
    "Address": "2086 Newpark Mall, Newark, CA 94560",
    "Lat": 37.5264691,
    "Lng": "-122.0012751",
    "Website": "https://www.agriculturalinstitute.org/directory/listing-details/newark-market",
    "Season": "Year-round",
    "Hours": "Sunday, 9 a.m.-1 p.m.",
    "Special features": "55+ vendors",
    "Notes": "Run by Agricultural Institute of Marin",
    "confirmed": "CQ"
  },
  {
    "Region": "East Bay",
    "Name": "Hayward Farmers Market",
    "Address": "777 B Street, Hayward, CA 94541,",
    "Lat": 37.6708387,
    "Lng": "-122.0857885",
    "Website": "https://www.agriculturalinstitute.org/directory/listing-details/hayward-market",
    "Season": "Year-round",
    "Hours": "Saturday, 9 a.m.-1 p.m.",
    "Special features": "35+ vendors",
    "Notes": "Run by Agricultural Institute of Marin",
    "confirmed": "CQ"
  },
  {
    "Region": "East Bay",
    "Name": "Irvington Farmers' Market",
    "Address": "3999 Union St\nFremont, CA 94538",
    "Lat": 37.5333903,
    "Lng": "-121.9587062",
    "Website": "http://www.pcfma.org/",
    "Season": "Year-round",
    "Hours": "Sunday, 9 a.m.-2 p.m.",
    "Notes": "Run by PCFMA",
    "confirmed": "CQ"
  },
  {
    "Region": "East Bay",
    "Name": "Livermore Farmer's Market",
    "Address": "2155 Third Street,Livermore, CA,94550",
    "Lat": 37.6796563,
    "Lng": "-121.7685416",
    "Website": "http://www.pcfma.org/",
    "Season": "Sunday market is year-round; Thursday market is April-October",
    "Hours": "Sunday, 10 a.m.-2 p.m.; Thursday, 4-8 p.m.",
    "Notes": "Run by PCFMA",
    "confirmed": "CQ"
  },
  {
    "Region": "East Bay",
    "Name": "Pleasanton Farms Market",
    "Address": "77 W Angela St,Pleasanton, CA,94566",
    "Lat": 37.6596027,
    "Lng": "-121.875904",
    "Website": "http://www.pcfma.org/",
    "Season": "Year-round",
    "Hours": "Saturday, 9 a.m.-1 p.m.",
    "Notes": "Run by PCFMA",
    "confirmed": "CQ"
  },
  {
    "Region": "East Bay",
    "Name": "Moraga Farmers' Market",
    "Address": "Moraga Way & Moraga Rd, Moraga, CA 94556",
    "Lat": 37.8348611,
    "Lng": "-122.1272091",
    "Website": "http://www.cafarmersmkts.com/moraga-farmers-market",
    "Season": "Year-round",
    "Hours": "Sunday, 9 a.m.-1 p.m.",
    "Special features": "40+ vendors",
    "Notes": "Run by California Farmers' Markets Association",
    "confirmed": "CQ"
  },
  {
    "Region": "East Bay",
    "Name": "Pinole Farmers' Market",
    "Address": "798 Fernandez Ave,Pinole, CA,94564",
    "Lat": 38.005397,
    "Lng": "-122.289969",
    "Website": "http://www.pcfma.org/",
    "Season": "Year-round",
    "Hours": "Saturday, 9 a.m.-1 p.m.",
    "Notes": "Run by PCFMA",
    "confirmed": "CQ"
  },
  {
    "Region": "East Bay",
    "Name": "Clayton Farmers' Market",
    "Address": "6095 Main St\nClayton, CA 94517",
    "Lat": 37.9418146,
    "Lng": "-121.9346627",
    "Website": "http://www.pcfma.org/",
    "Season": "May-October",
    "Hours": "Saturday, 8 a.m.-12 p.m.",
    "Special features": "starts back up 5/13",
    "Notes": "Run by PCFMA",
    "confirmed": "CQ"
  },
  {
    "Region": "East Bay",
    "Name": "Diablo Valley Farmers' Market",
    "Address": "North Wiget Ln & Mitchell Dr, Walnut Creek, CA 94598",
    "Lat": 37.9283999,
    "Lng": "-122.0265434",
    "Website": "http://www.cafarmersmkts.com/diablo-valley-farmers-market",
    "Season": "Year-round",
    "Hours": "Saturday, 9 a.m.-1 p.m.",
    "Special features": "40+ vendors; located at the Shadelands Business Park",
    "Notes": "Run by California Farmers' Markets Association",
    "confirmed": "CQ"
  },
  {
    "Region": "East Bay",
    "Name": "Pittsburgh Farmer's Market",
    "Address": "600 Railroad Ave,Pittsburg, CA,94565",
    "Lat": 38.0311892,
    "Lng": "-121.8838984",
    "Website": "http://www.pcfma.org/",
    "Season": "May-October",
    "Hours": "Saturday, 9 a.m.-1 p.m.",
    "Special features": "Starts back up 5/6",
    "Notes": "Run by PCFMA",
    "confirmed": "CQ"
  },
  {
    "Region": "East Bay",
    "Name": "Brentwood Farmers' Market",
    "Address": "248 Oak St., Brentwood, CA  94513",
    "Lat": 37.9325378,
    "Lng": "-121.6944907",
    "Website": "http://www.pcfma.org/",
    "Season": "March-November",
    "Hours": "Saturday, 8 a.m.-12 p.m.",
    "Special features": "starts back up 3/4",
    "Notes": "Run by PCFMA",
    "confirmed": "CQ"
  },
  {
    "Region": "East Bay",
    "Name": "Bay Street Farmers' Market - Emeryville",
    "Address": "5616 Bay Street,Emeryville, CA 94608",
    "Lat": 37.8337888,
    "Lng": "-122.2920258",
    "Website": "http://www.pcfma.org/",
    "Season": "April-September",
    "Hours": "Saturday, 3-7 p.m.",
    "Special features": "starts back up 4/15",
    "Notes": "Run by PCFMA",
    "confirmed": "CQ"
  },
  {
    "Region": "East Bay",
    "Name": "Dublin Farmers' Market",
    "Address": "4201 Central Pkwy,Dublin, CA,94568",
    "Lat": 37.7105105,
    "Lng": "-121.8784509",
    "Website": "http://www.pcfma.org/",
    "Season": "April-September",
    "Hours": "Thursday, 4-8 p.m.",
    "Special features": "starts back up 4/13",
    "Notes": "Run by PCFMA",
    "confirmed": "CQ"
  },
  {
    "Region": "East Bay",
    "Name": "Kaiser Antioch Farmers' Market",
    "Address": "4501 Sand Creek Rd., Antioch, CA  94531",
    "Lat": 37.9518661,
    "Lng": "-121.77627",
    "Website": "http://www.pcfma.org/",
    "Season": "May-October",
    "Hours": "Thursday, 10 a.m.-2 p.m.",
    "Special features": "starts back 5/4",
    "Notes": "Run by PCFMA",
    "confirmed": "CQ"
  },
  {
    "Region": "East Bay",
    "Name": "Kaiser Fremont Farmers' Market",
    "Address": "2826 Walnut Ave., Fremont, CA  94538",
    "Lat": 37.5521858,
    "Lng": "-121.9775412",
    "Website": "http://www.pcfma.org/",
    "Season": "Year-round",
    "Hours": "Thursday, 10 a.m.-2 p.m.",
    "Notes": "Run by PCFMA",
    "confirmed": "CQ"
  },
  {
    "Region": "East Bay",
    "Name": "Kaiser Oakland Farmers' Market",
    "Address": "3600 Broadway, Oakland, CA  94611",
    "Lat": 37.8235195,
    "Lng": "-122.2582442",
    "Website": "http://www.pcfma.org/",
    "Season": "April-October",
    "Hours": "Friday, 10 a.m.-2 p.m.",
    "Special features": "starts back 4/7",
    "Notes": "Run by PCFMA",
    "confirmed": "CQ"
  },
  {
    "Region": "East Bay",
    "Name": "Kaiser San Leandro Farmers' Market",
    "Address": "2500 Merced Street,San Leandro, CA,94577",
    "Lat": 37.7063601,
    "Lng": "-122.1651409",
    "Website": "http://www.pcfma.org/",
    "Season": "Year-round",
    "Hours": "Wednesday, 10 a.m.-2 p.m.",
    "Notes": "Run by PCFMA",
    "confirmed": "CQ"
  },
  {
    "Region": "East Bay",
    "Name": "Kaiser Union City Farmers' Market",
    "Address": "3553 Whipple Rd,Union City, CA,94587",
    "Lat": 37.6063676,
    "Lng": "-122.0835966",
    "Website": "http://www.pcfma.org/",
    "Season": "April-October",
    "Hours": "Tuesday, 10 a.m.-2 p.m.",
    "Special features": "starts back 4/12",
    "Notes": "Run by PCFMA",
    "confirmed": "CQ"
  },
  {
    "Region": "East Bay",
    "Name": "Kaiser Walnut Creek Farmers' Market",
    "Address": "1425 South Main Street,Walnut Creek, CA,94596",
    "Lat": 37.8915785,
    "Lng": "-122.0588864",
    "Website": "http://www.pcfma.org/",
    "Season": "Year-round",
    "Hours": "Tuesday, 10 a.m.-2 p.m.",
    "Notes": "Run by PCFMA",
    "confirmed": "CQ"
  },
  {
    "Region": "East Bay",
    "Name": "Martinez Farmers' Market",
    "Address": "615 Estudillo St,Martinez, CA,94553",
    "Lat": 38.017799,
    "Lng": "-122.1365865",
    "Website": "http://www.pcfma.org/",
    "Season": "Year-round",
    "Hours": "Sunday, 10 a.m.-2 p.m.",
    "Notes": "Run by PCFMA",
    "confirmed": "CQ"
  },
  {
    "Region": "East Bay",
    "Name": "Pleasant Hill Farmers' Market",
    "Address": "136 Trelany Rd,Pleasant Hill, CA,94523",
    "Lat": 37.9475497,
    "Lng": "-122.0622744",
    "Website": "http://www.pcfma.org/",
    "Season": "May-October",
    "Hours": "Saturday, 10 a.m.-2 p.m.",
    "Special features": "starts back up 5/6",
    "Notes": "Run by PCFMA",
    "confirmed": "CQ"
  },
  {
    "Region": "East Bay",
    "Name": "Union City Farmers Market",
    "Address": "30940 Watkins St,Union City, CA,94587",
    "Lat": 37.597169,
    "Lng": "-122.0786868",
    "Website": "http://www.pcfma.org/",
    "Season": "Year-round",
    "Hours": "Saturday, 9 a.m.-1 p.m.",
    "Notes": "Run by PCFMA",
    "confirmed": "CQ"
  },
  {
    "Region": "East Bay",
    "Name": "Uptown Oakland Farmers' Market",
    "Address": "1 Kaiser Plaza, Oakland, CA 94612",
    "Lat": 37.8099758,
    "Lng": "-122.2641173",
    "Website": "http://www.pcfma.org/",
    "Season": "April-November",
    "Hours": "Wednesday, 10 a.m.-2 p.m.",
    "Special features": "Starts back up 4/12.",
    "Notes": "Run by PCFMA",
    "confirmed": "CQ"
  },
  {
    "Region": "East Bay",
    "Name": "Walnut Creek Farmers' Market",
    "Address": "1737 Locust Street Walnut Creek, CA 94596\n",
    "Lat": 37.9029608,
    "Lng": "-122.0637172",
    "Website": "http://www.cccfm.org",
    "Season": "Year-round",
    "Hours": "Sunday, 9 a.m.-1 p.m.",
    "Notes": "Run by Contra Costa Certified Farmers' Markets",
    "confirmed": "CQ"
  },
  {
    "Region": "East Bay",
    "Name": "Orinda Farmers' Market",
    "Address": "28 Orinda Way, Orinda, CA 94563\n",
    "Lat": 37.8830553,
    "Lng": "-122.1878526",
    "Website": "http://www.cccfm.org",
    "Season": "April-November",
    "Hours": "Saturdays, 9 a.m.-1 p.m.",
    "Notes": "Run by Contra Costa Certified Farmers' Markets",
    "confirmed": "CQ"
  },
  {
    "Region": "East Bay",
    "Name": "El Cerrito Plaza Farmers' Market",
    "Address": "El Cerrito Plaza parking lot\nEl Cerrito, CA 94530",
    "Website": "https://www.facebook.com/pages/El-Cerrito-Farmers-Market/126028950790000",
    "Season": "Year-round",
    "Hours": "Saturday, 9 a.m.-1 p.m.",
    "confirmed": "CQ"
  },
  {
    "Region": "East Bay",
    "Name": "Benecia Certified Farmers' Market",
    "Address": "90 1st St, Benicia, CA 94510",
    "Lat": 38.0445702,
    "Lng": "-122.1619675",
    "Website": "http://www.beniciamainstreet.org/",
    "Season": "April-October",
    "Hours": "Thursday, 4-8 p.m. (April-August); 4-7 p.m. September-October",
    "Special features": "starts back 4/27; runs through October 26",
    "Notes": "Run by Benicia Main Street",
    "confirmed": "CQ"
  },
  {
    "Region": "East Bay",
    "Name": "Fruitvale Farmer's Market",
    "Address": "Avenida de la Fuente, Oakland, CA 94601",
    "Lat": 37.7756654,
    "Lng": "-122.2252723",
    "Website": "https://unitycouncil.org/program/farmers-market/",
    "Season": "CONFIRM",
    "Hours": "Tuesday & Thursday, 12-7 p.m.; Sunday, 10 a.m.-3 p.m.",
    "Notes": "Run by Fruitvale non-profit The Unity Council; Tiffany Wright, Farmer's Market Manager\n510-535-7178        \ntiffanyw@unitycouncil.org",
    "confirmed": "CQ"
  },
  {
    "Region": "East Bay",
    "Name": "Kensington Farmers Market",
    "Address": "379-389 Colusa Ave, Kensington, CA 94707",
    "Lat": 37.8997932,
    "Lng": "-122.287268",
    "Website": "http://www.kensingtonfarmersmarket.org/home",
    "Season": "Year-round",
    "Hours": "Sunday, 10 a.m.-2 p.m.",
    "confirmed": "CQ"
  },
  {
    "Region": "East Bay",
    "Name": "Niles Certified Farmer's Market",
    "Address": "37592 Niles Blvd, Fremont, CA 94536",
    "Lat": 37.5765121,
    "Lng": "-121.9769714",
    "Website": "http://www.wcfma.org/fremont--niles-.html",
    "Season": "Year-round",
    "Hours": "Saturday, 9 a.m.-1 p.m.",
    "Notes": "Run by West Coast Farmers' Market Association",
    "confirmed": "CQ"
  },
  {
    "Region": "East Bay",
    "Name": "Fremont Centerville Certified Farmers' Market",
    "Address": "Bonde Way, Fremont, CA 94536",
    "Lat": 37.5600155,
    "Lng": "-122.0073921",
    "Website": "http://www.fremontfarmersmarket.com/",
    "Season": "Year-round",
    "Hours": "Saturday, 9 a.m.-1 p.m.",
    "confirmed": "CQ - CDFA list"
  },
  {
    "Region": "East Bay",
    "Name": "Mandela Marketplace Community Produce Stand - Met West High School",
    "Address": "314 E 10th St, Oakland, CA 94606",
    "Lat": 37.7952101,
    "Lng": "-122.2583672",
    "Website": "http://www.mandelamarketplace.org/copy-of-healthy-retail",
    "Season": "Year-round",
    "Hours": "Tuesday, 2-4 p.m.",
    "Notes": "produce comes from Mandela Foods Distribution, a Mandela MarketPlace Enterprise, that supports local, under-resourced, sustainable farmers within a 200 mile radius of Oakland.",
    "confirmed": "CQ"
  },
  {
    "Region": "East Bay",
    "Name": "Mandela Marketplace Community Produce Stand - La Escuelita",
    "Address": "1050 2nd Ave, Oakland, CA 94606",
    "Lat": 37.7962574,
    "Lng": "-122.2585153",
    "Website": "http://www.mandelamarketplace.org/copy-of-healthy-retail",
    "Season": "Year-round",
    "Hours": "Tuesday, 2-4 p.m.",
    "Notes": "produce comes from Mandela Foods Distribution, a Mandela MarketPlace Enterprise, that supports local, under-resourced, sustainable farmers within a 200 mile radius of Oakland.",
    "confirmed": "CQ"
  },
  {
    "Region": "East Bay",
    "Name": "Mandela Marketplace Community Produce Stand - North Oakland Senior Center",
    "Address": "5714 M.L.K. Jr Way, Oakland, CA 94609",
    "Lat": 37.8428693,
    "Lng": "-122.2692479",
    "Website": "http://www.mandelamarketplace.org/copy-of-healthy-retail",
    "Season": "Year-round",
    "Hours": "Wednesday, 10:30 a.m.-12:30 p.m.",
    "Notes": "produce comes from Mandela Foods Distribution, a Mandela MarketPlace Enterprise, that supports local, under-resourced, sustainable farmers within a 200 mile radius of Oakland.",
    "confirmed": "CQ"
  },
  {
    "Region": "East Bay",
    "Name": "Mandela Marketplace Community Produce Stand  - Highland Hospital",
    "Address": "1411 E 31st St, Oakland, CA 94602",
    "Lat": 37.7985416,
    "Lng": "-122.2316531",
    "Website": "http://www.mandelamarketplace.org/copy-of-healthy-retail",
    "Season": "Year-round",
    "Hours": "Wednesday, 2:30-4:30 p.m.",
    "Notes": "produce comes from Mandela Foods Distribution, a Mandela MarketPlace Enterprise, that supports local, under-resourced, sustainable farmers within a 200 mile radius of Oakland.",
    "confirmed": "CQ"
  },
  {
    "Region": "East Bay",
    "Name": "Mandela Marketplace Community Produce Stand - Cesar Chavez Educational Center",
    "Address": "2825 International Boulevard Oakland California, 94601",
    "Lat": 37.7793766,
    "Lng": "-122.230619",
    "Website": "http://www.mandelamarketplace.org/copy-of-healthy-retail",
    "Season": "Year-round",
    "Hours": "Thursday, 8-10 a.m.",
    "Notes": "produce comes from Mandela Foods Distribution, a Mandela MarketPlace Enterprise, that supports local, under-resourced, sustainable farmers within a 200 mile radius of Oakland.",
    "confirmed": "CQ"
  },
  {
    "Region": "East Bay",
    "Name": "Mandela Marketplace Community Produce Stand - West Oakland Health Center",
    "Address": "700 Adeline St, Oakland, CA 94607",
    "Lat": 37.8042039,
    "Lng": "-122.2874826",
    "Website": "http://www.mandelamarketplace.org/copy-of-healthy-retail",
    "Season": "Year-round",
    "Hours": "Thursday, 12-2 p.m.",
    "Notes": "produce comes from Mandela Foods Distribution, a Mandela MarketPlace Enterprise, that supports local, under-resourced, sustainable farmers within a 200 mile radius of Oakland.",
    "confirmed": "CQ"
  },
  {
    "Region": "East Bay",
    "Name": "Mandela Marketplace Pop-up Community Produce Stand - Lockwood/Palo Vista Gardens",
    "Address": "1100 64th Ave, Oakland, CA 94621",
    "Lat": 37.7611982,
    "Lng": "-122.1992064",
    "Website": "http://www.mandelamarketplace.org/copy-of-healthy-retail",
    "Season": "Monthly",
    "Hours": "3rd Friday 2-4 p.m.",
    "Notes": "produce comes from Mandela Foods Distribution, a Mandela MarketPlace Enterprise, that supports local, under-resourced, sustainable farmers within a 200 mile radius of Oakland.",
    "confirmed": "CQ"
  },
  {
    "Region": "East Bay",
    "Name": "Mandela Marketplace Community Produce Stand - Castlemont Community Market",
    "Address": "8711 MacArthur Blvd.\nOakland, CA 94605",
    "Lat": 37.7583329,
    "Lng": "-122.162355",
    "Website": "http://www.mandelamarketplace.org/copy-of-healthy-retail",
    "Season": "Monthly",
    "Hours": "1st Saturday, 12-3 p.m.",
    "Notes": "produce comes from Mandela Foods Distribution, a Mandela MarketPlace Enterprise, that supports local, under-resourced, sustainable farmers within a 200 mile radius of Oakland.",
    "confirmed": "CQ"
  },
  {
    "Region": "East Bay",
    "Name": "San Ramon Farmers' Market",
    "Address": "2641 Camino Ramon, San Ramon, CA 94526",
    "Lat": 37.7655356,
    "Lng": "-121.9574987",
    "Website": "https://www.sanramonfarmersmarket.org/",
    "Season": "Year-round",
    "Hours": "Tuesday & Thursday, 10 a.m.-2 p.m.; Saturday, 9 a.m.-1 p.m.",
    "confirmed": "CQ"
  },
  {
    "Region": "East Bay",
    "Name": "Discovery Bay Certified Farmers' Market",
    "Address": "1555 Riverlake Road, Discovery Bay, CA 94505",
    "Lat": 37.9035421,
    "Lng": "-121.6037922",
    "Website": "http://dbcf.info/farmers.html",
    "Season": "May-December",
    "Hours": "Thursdsy, 4-8 p.m.",
    "confirmed": "CQ"
  },
  {
    "Region": "East Bay",
    "Name": "Crockett-Port Costa Farmers' Market",
    "Address": "1214APomona St., Crockette, CA 94525",
    "Lat": 38.052618,
    "Lng": "-122.223162",
    "Website": "https://www.facebook.com/CPCFM1/",
    "Season": "April-September",
    "Hours": "Saturday, 10 a.m.-2 p.m.",
    "confirmed": "CQ"
  },
  {
    "Region": "East Bay",
    "Name": "Richmond Certified Farmers' Market",
    "Address": "Barrett Ave.\nRichmond, CA 94804",
    "Lat": 37.9158152,
    "Lng": "-122.3390936",
    "Website": "https://www.facebook.com/Richmond-CA-Certified-Farmers-Market-531848233666298/",
    "Season": "Year-round",
    "Hours": "Friday, 8 a.m.-5 p.m.",
    "Notes": "established in 1984 and is one of the oldest markets in the East Bay",
    "confirmed": "CQ"
  },
  {
    "Region": "East Bay",
    "Name": "Rossmoor Certified Farmers' Market",
    "Address": "Golden Rain Rd, Walnut Creek, CA 94595",
    "Lat": 37.8754701,
    "Lng": "-122.0793028",
    "Website": "http://www.cafarmersmkts.com/rossmoor-farmers-market",
    "Season": "May-October",
    "Hours": "Friday, 9:30 a.m.-1 p.m.",
    "Notes": "ONLY FOR MEMBERS OF THE ROSSMOOR RETIREMENT COMMUNITY & THEIR FAMILIES. Run by California Farmers' Markets Association",
    "confirmed": "CQ"
  },
  {
    "Region": "East Bay",
    "Name": "Alamo Certified Farmers' Market",
    "Address": "Alamo Plz\nAlamo, CA 94507",
    "Lat": 37.8514276,
    "Lng": "-122.0350078",
    "Website": "https://www.facebook.com/pg/alamocfm/about/?ref=page_internal",
    "Season": "Year-round",
    "Hours": "Saturday, 9 a.m.-2 p.m.",
    "confirmed": "CQ"
  },
  {
    "Region": "East Bay",
    "Name": "Contra Costa Regional Medical Center Certified Farmers' Market",
    "Address": "2500 Alhambra Ave., Martinez, CA 94553",
    "Lat": 38.006764,
    "Lng": "-122.1327937",
    "Website": "http://www.co.contra-costa.ca.us/2214/Farmers-Markets",
    "Season": "May-September",
    "Hours": "Tuesday, 10 a.m.-2 p.m.",
    "confirmed": "em 3/29 Staci DeShasier <staci@cccfm.org> to see if still in operation"
  }
]