[
  {
    "Region": "North Bay/Wine Country",
    "Name": "Kaiser Vallejo Farmers' Market",
    "Address": "975 Sereno Dr,Vallejo, CA,94589",
    "Lat": 38.12767,
    "Lng": "-122.2484432",
    "Website": "http://www.pcfma.org/",
    "Season": "Year-round",
    "Hours": "Friday, 10 a.m.-2 p.m.",
    "Notes": "Run by PCFMA",
    "confirmed": "CQ"
  },
  {
    "Region": "North Bay/Wine Country",
    "Name": "Vacaville Farmers' Market",
    "Address": "300 Main St., Vacaville, CA  95688",
    "Lat": 38.3563837,
    "Lng": "-121.9897126",
    "Website": "http://www.pcfma.org/",
    "Season": "May-October",
    "Hours": "Saturday, 8 a.m.-12 p.m.",
    "Special features": "Starts back 5/6",
    "Notes": "Run by PCFMA",
    "confirmed": "CQ"
  },
  {
    "Region": "North Bay/Wine Country",
    "Name": "Vallejo Farmers' Market",
    "Address": "400 Georgia St., Vallejo, CA  94590",
    "Lat": 38.1014333,
    "Lng": "-122.2562734",
    "Website": "http://www.pcfma.org/",
    "Season": "Year-round",
    "Hours": "Saturday, 9 a.m.-2 p.m.",
    "Notes": "Run by PCFMA",
    "confirmed": "CQ"
  },
  {
    "Region": "North Bay/Wine Country",
    "Name": "Bodega Bay Community Farmers Market",
    "Address": "2255 CA-1, Bodega Bay, CA 94923",
    "Lat": 38.3411434,
    "Lng": "-123.0497197",
    "Website": "http://bodegabaycommunitycenter.org/farmers-market/",
    "Season": "Memorial Day-October",
    "Hours": "Sunday, 10 a.m.-2 p.m.",
    "Special features": "CONFIRM",
    "Notes": "5/28/2017-end of october; sundays 10-2 ",
    "confirmed": "CQ"
  },
  {
    "Region": "North Bay/Wine Country",
    "Name": "Occidental Bohemian Farmers Market",
    "Address": "3611 Bohemian Hwy Occidental, CA 95465",
    "Lat": 38.406686,
    "Lng": "-122.947241",
    "Website": "http://occidentalfarmersmarket.com/",
    "Season": "June-October",
    "Hours": "Friday, 4 p.m.-dusk",
    "confirmed": "CQ"
  },
  {
    "Region": "North Bay/Wine Country",
    "Name": "Oakmont Farmers Market ",
    "Address": "Oakmont Dr & White Oak Dr, Santa Rosa, CA 95409",
    "Lat": 38.4410098,
    "Lng": "-122.6041569",
    "Website": "http://www.sonomacounty.com/farms-farmers-markets/oakmont-farmers-market",
    "Season": "Year-round",
    "Hours": "Saturday, 9 a.m.-12 p.m.",
    "Notes": "sonoma county certified farmers market association -- also run sonoma valley  cert farmers market on friday 9-12:30 year round; sebastopol market on sunday year round sunday ; Hilda Swartz runs Oakmont & Sonoma Valley fms;  ",
    "confirmed": "CQ"
  },
  {
    "Region": "North Bay/Wine Country",
    "Name": "Corte Madera Farmers Market",
    "Address": "Town Center Corte Madera, 100 Corte Madera Town Center, Corte Madera, CA 94925",
    "Lat": 37.927329,
    "Lng": "-122.518017",
    "Website": "https://www.marincommunityfarmersmarkets.org/",
    "Season": "Year-round",
    "Hours": "Wednesday, 12-5 p.m.",
    "Special features": "CONFIRM",
    "Notes": "Run by Marin Community Farmers Markets",
    "confirmed": "CQ"
  },
  {
    "Region": "North Bay/Wine Country",
    "Name": "Point Reyes Farmers' Market",
    "Address": "11250 CA-1, Point Reyes Station, CA 94956\n",
    "Lat": 38.0680633,
    "Lng": "-122.8053238",
    "Website": "http://www.pointreyesfarmersmarket.org/",
    "Season": "June-November",
    "Hours": "Saturday, 9 a.m.-1 p.m.",
    "Special features": "CONFIRM",
    "Notes": "3rd or 4th weekend in june runs to early early november usually 20 weeks, some talk ",
    "confirmed": "CQ"
  },
  {
    "Region": "North Bay/Wine Country",
    "Name": "San Rafael/Marin Civic Center Farmers' Market",
    "Address": "3501 Civic Center Drive, San Rafael, CA  94903",
    "Lat": 37.9979138,
    "Lng": "-122.530975",
    "Website": "https://www.agriculturalinstitute.org/directory/listing-details/sunday-san-rafael-market",
    "Season": "Year-round",
    "Hours": "Sunday, 8 a.m.-1 p.m.",
    "Special features": "200+ vendors; opened in 1987",
    "Notes": "Run by Agricultural Institute of Marin",
    "confirmed": "CQ"
  },
  {
    "Region": "North Bay/Wine Country",
    "Name": "San Rafael/Marin Civic Center Farmers' Market",
    "Address": "6000 Northgate Parking Lot, San Rafael, CA  94903",
    "Lat": 38.0032312,
    "Lng": "-122.5437693",
    "Website": "https://www.agriculturalinstitute.org/directory/listing-details/thursday-san-rafael-market",
    "Season": "Year-round",
    "Hours": "Thursday, 8 a.m.-1 p.m.",
    "Special features": "100+ vendros; Is temporarily relocated, through March TBD, from Marin Center Avenue of Flags site to the Northgate Mall.",
    "Notes": "Run by Agricultural Institute of Marin",
    "confirmed": "CQ"
  },
  {
    "Region": "North Bay/Wine Country",
    "Name": "Downtown San Rafael Farmers Market",
    "Address": "1000 Fourth Street\nSan Rafael, CA 94903",
    "Lat": 37.9736427,
    "Lng": "-122.5275333",
    "Website": "http://www.sanrafaelmarket.org",
    "Season": "April-September",
    "Hours": "Thursday, 6-9 p.m.",
    "Notes": "2017 will be market's 28th season",
    "confirmed": "CQ"
  },
  {
    "Region": "North Bay/Wine Country",
    "Name": "Downtown Napa Farmers' Market",
    "Address": "195 Gasser Dr, Napa, CA 94559\n",
    "Lat": 38.2828786,
    "Lng": "-122.2799501",
    "Website": "https://napafarmersmarket.org/",
    "Season": "April-November",
    "Hours": "Tuesday & Saturday, 8 a.m.-12:30 p.m.",
    "Special features": "2017 will open earlier than previous years; 70+ vendors",
    "confirmed": "CQ"
  },
  {
    "Region": "North Bay/Wine Country",
    "Name": "Sonoma Valley Certified Farmers Market",
    "Address": "241 West First Street, Sonoma, CA, 94999",
    "Lat": 38.2967122,
    "Lng": "-122.4583308",
    "Website": "http://www.svcfm.org/",
    "Season": "Year-round",
    "Hours": "Friday, 9 a.m.-12:30 p.m.",
    "confirmed": "CQ"
  },
  {
    "Region": "North Bay/Wine Country",
    "Name": "Tiburon Farmers Market",
    "Address": "Main St., Tiburon, CA 94920",
    "Lat": 37.8730856,
    "Lng": "-122.4572674",
    "Website": "http://communityfarmersmarkets.com/markets/",
    "Season": "June-October",
    "Hours": "Thursday, 4-8 p.m.",
    "Notes": "Run by Agricultural Community Events Farmers’ Markets; 5/4-9/28",
    "confirmed": "CQ"
  },
  {
    "Region": "North Bay/Wine Country",
    "Name": "San Anselmo Organic Farm Stand",
    "Address": "525 San Anselmo Avenue\nSan Anselmo, CA 94960",
    "Lat": 37.9747983,
    "Lng": "-122.562813",
    "Website": "http://www.communityfarmstands.com/san-anselmo.html",
    "Season": "June-October",
    "Hours": "Friday, 11 a.m.-7:30 p.m.",
    "Notes": "Run by Marin Community Farm Stands & CSA",
    "confirmed": "Per website, will be back for 2017; em 3/29 to confirm when the 2017 season starts back up"
  },
  {
    "Region": "North Bay/Wine Country",
    "Name": "Ross Organic Farm Stand",
    "Address": "1 Ross Common, Ross, CA 94957",
    "Lat": 37.9615037,
    "Lng": "-122.5561421",
    "Website": "http://www.communityfarmstands.com/new-ross-farm-stand.html",
    "Season": "CONFIRM SEASON",
    "Hours": "Thursday, 12-7:30 p.m.",
    "Notes": "Run by Marin Community Farm Stands & CSA",
    "confirmed": "Per website, will be back for 2017; em 3/29 to confirm when the 2017 season starts back up"
  },
  {
    "Region": "North Bay/Wine Country",
    "Name": "The Farm Stand at Forest Knolls",
    "Address": "6700 Sir Francis Drake Blvd. \nForest Knolls CA 94933",
    "Lat": 38.0166449,
    "Lng": "-122.685132",
    "Website": "http://www.communityfarmstands.com/the-farm-stand-at-forest-knolls.html",
    "Season": "Year-round",
    "Hours": "Monday & Thursday, 11 a.m.-7 p.m.; Friday-Sunday, 10 a.m.-7:30 p.m.",
    "Notes": "Run by Marin Community Farm Stands & CSA",
    "confirmed": "CQ"
  },
  {
    "Region": "North Bay/Wine Country",
    "Name": "St. Helena Farmers' Market",
    "Address": "\n360 Crane Ave, St Helena, CA 94574",
    "Lat": 38.493291,
    "Lng": "-122.465153",
    "Website": "http://sthelenafarmersmkt.org/",
    "Season": "May-October",
    "Hours": "Friday, 8 a.m.-1 p.m.",
    "confirmed": "CQ"
  },
  {
    "Region": "North Bay/Wine Country",
    "Name": "Healdsburg Farmers' Market",
    "Address": "W North St & Vine St, Healdsburg, CA 95448\n",
    "Lat": 38.61154,
    "Lng": "-122.873291",
    "Website": "http://www.healdsburgfarmersmarket.org/",
    "Season": "Saturday market: May-November; Wednesday market: June-October",
    "Hours": "Saturday, 8:30 a.m.-12 p.m.; Wednesday, 4-7 p.m.",
    "confirmed": "CQ"
  },
  {
    "Region": "North Bay/Wine Country",
    "Name": "Santa Rosa Original Certified Farmers' Market",
    "Address": "50 Mark West Springs Road,\nSanta Rosa, CA 95403",
    "Lat": 38.4931765,
    "Lng": "-122.7492174",
    "Website": "http://thesantarosafarmersmarket.com/",
    "Season": "Year-round",
    "Hours": "Wednesday, 8:30 a.m.-1 p.m.; Saturday, 8:30 a.m.-1 p.m.",
    "confirmed": "CQ"
  },
  {
    "Region": "North Bay/Wine Country",
    "Name": "Sebastopol Farmers' Market",
    "Address": "Sebastopol Plaza,\nSebastopol, CA 95472",
    "Lat": 38.4057258,
    "Lng": "-122.8096941",
    "Website": "http://www.sebastopolfarmmarket.org/",
    "Season": "Year-round",
    "Hours": "Sunday, 10 a.m.-1:30 p.m.",
    "confirmed": "CQ"
  },
  {
    "Region": "North Bay/Wine Country",
    "Name": "Petaluma Farmers' Market - East Side",
    "Address": "320 N. McDowell Petaluma, CA 94954",
    "Lat": 38.2528494,
    "Lng": "-122.6301726",
    "Website": "http://communityfarmersmarkets.com/markets/",
    "Season": "Year-round",
    "Hours": "Tuesday, 10 a.m.-1:30 p.m.",
    "Notes": "Run by Agricultural Community Events Farmers’ Markets",
    "confirmed": "CQ"
  },
  {
    "Region": "North Bay/Wine Country",
    "Name": "Petaluma Farmers' Market - Walnut Park",
    "Address": "Petaluma Blvd & D St\nPetaluma, CA 94952",
    "Lat": 38.2324866,
    "Lng": "-122.636883",
    "Website": "http://communityfarmersmarkets.com/markets/",
    "Season": "May-November",
    "Hours": "Saturday, 2-5:30 p.m.",
    "Notes": "Run by Agricultural Community Events Farmers’ Markets; 5/13-11/19",
    "confirmed": "CQ"
  },
  {
    "Region": "North Bay/Wine Country",
    "Name": "Petaluma Farmers' Market - Theatre District",
    "Address": "140 2nd St #112, Petaluma, CA 94952\n",
    "Lat": 38.2332773,
    "Lng": "-122.637403",
    "Website": "http://communityfarmersmarkets.com/markets/",
    "Season": "June-August",
    "Hours": "Wednesday, 4:30-8 p.m.",
    "Notes": "Run by Agricultural Community Events Farmers’ Markets; 6/7-8/30",
    "confirmed": "CQ"
  },
  {
    "Region": "North Bay/Wine Country",
    "Name": "Mill Valley Farmers Market",
    "Address": "759 E Blithedale Ave, Mill Valley, CA 94941",
    "Lat": 37.9031909,
    "Lng": "-122.5246933",
    "Website": "https://www.marincommunityfarmersmarkets.org/",
    "Season": "Year-round",
    "Hours": "Friday, 9:30 a.m.-2:30 p.m.",
    "Special features": "CONFIRM",
    "Notes": "Run by Marin Community Farmers Markets",
    "confirmed": "CQ"
  },
  {
    "Region": "North Bay/Wine Country",
    "Name": "Tam Valley Farmers Market",
    "Address": "203 Marin Ave, Mill Valley, CA 94941",
    "Lat": 37.8761584,
    "Lng": "-122.5267113",
    "Website": "https://www.marincommunityfarmersmarkets.org/",
    "Season": "May-November",
    "Hours": "Tuesday, 3-7 p.m.",
    "Special features": "CONFIRM",
    "Notes": "Run by Marin Community Farmers Markets",
    "confirmed": "CQ"
  },
  {
    "Region": "North Bay/Wine Country",
    "Name": "Downtown Novato Community Farmers Market",
    "Address": "Grant Ave\nNovato, CA 94945",
    "Lat": 38.1218145,
    "Lng": "-122.5485873",
    "Website": "http://communityfarmersmarkets.com/markets/",
    "Season": "May-September",
    "Hours": "Tuesday, 4-8 p.m.",
    "Notes": "Run by Agricultural Community Events Farmers’ Markets; 5/2-9/26",
    "confirmed": "CQ"
  },
  {
    "Region": "North Bay/Wine Country",
    "Name": "Fairfax Community Farmers' Market",
    "Address": "\n2097 Sir Francis Drake Blvd, Fairfax, CA 94930",
    "Lat": 37.9901985,
    "Lng": "-122.5927029",
    "Website": "http://communityfarmersmarkets.com/markets/",
    "Season": "Year-round",
    "Hours": "Sunday, 12-3 p.m.",
    "Notes": "Run by Agricultural Community Events Farmers’ Markets; 5/3-9/27",
    "confirmed": "CQ"
  },
  {
    "Region": "North Bay/Wine Country",
    "Name": "Fairfax Community Farmers' Market",
    "Address": "124 Bolinas Rd, Fairfax, CA 94930",
    "Lat": 37.9852176,
    "Lng": "-122.5902967",
    "Website": "http://communityfarmersmarkets.com/markets/",
    "Season": "April-September",
    "Hours": "Wednesday, 4-8 p.m.",
    "Notes": "Run by Agricultural Community Events Farmers’ Markets",
    "confirmed": "CQ"
  },
  {
    "Region": "North Bay/Wine Country",
    "Name": "The Springs Community Farmers' Market",
    "Address": "329 Dechene Ave, Sonoma, CA 95476",
    "Lat": 38.316739,
    "Lng": "-122.488648",
    "Website": "http://communityfarmersmarkets.com/markets/",
    "Season": "July-September",
    "Hours": "Sunday, 4-7 p.m.",
    "Notes": "Run by Agricultural Community Events Farmers' Markets",
    "confirmed": "CQ"
  },
  {
    "Region": "North Bay/Wine Country",
    "Name": "Kenwood Community Farmers Market",
    "Address": "9000 Sonoma Hwy, Kenwood, CA 95452",
    "Lat": 38.4177755,
    "Lng": "-122.5496518",
    "Website": "http://communityfarmersmarkets.com/markets/",
    "Season": "June-September",
    "Hours": "Sunday, 10 a.m.-2 p.m.",
    "Notes": "Run by Agricultural Community Events Farmers’ Markets; 6/4-9/24",
    "confirmed": "CQ"
  },
  {
    "Region": "North Bay/Wine Country",
    "Name": "Rohnert Park Farmers' Market",
    "Address": "500 City Center Drive Rohnert, CA 94928",
    "Lat": 38.3491782,
    "Lng": "-122.7031068",
    "Website": "http://communityfarmersmarkets.com/markets/",
    "Season": "June-August",
    "Hours": "Friday, 5-8 p.m.",
    "Notes": "Run by Agricultural Community Events Farmers’ Markets; 6/2-8/24",
    "confirmed": "CQ"
  },
  {
    "Region": "North Bay/Wine Country",
    "Name": "Forestville Certified Farmers Market",
    "Address": "6990 Front St, Forestville, CA 95436",
    "Lat": 38.473211,
    "Lng": "-122.893309",
    "Website": "http://www.forestvillefarmersmarket.com/",
    "Season": "June-October",
    "Hours": "Tuesday, 4-7:30 p.m.",
    "Notes": "Andy Farriester, market mgr; start june 6 - October 24; tasterrv@sonic.net",
    "confirmed": "CQ"
  },
  {
    "Region": "North Bay/Wine Country",
    "Name": "Valley of the Moon Certified Farmers' Market",
    "Address": "Sonoma Plaza on the Square\n2 E Napa St\nSonoma, CA 95476",
    "Lat": 38.2928408,
    "Lng": "-122.4576931",
    "Website": "http://www.sonomaplazamarket.org/",
    "Season": "May-September",
    "Hours": "Tuesday, 5:30 p.m.-dusk",
    "confirmed": "CQ"
  },
  {
    "Region": "North Bay/Wine Country",
    "Name": "Russian River Farmers Market",
    "Address": "Fourth Street and Armstrongs Woods Road, \nGuerneville, CA 95446",
    "Lat": 38.5031421,
    "Lng": "-122.9976585",
    "Website": " https://www.facebook.com/Russian-River-Farmers-Market-154363401401149/",
    "Season": "May-September",
    "Hours": "Thursday, 3-7 p.m.",
    "Special features": "LEFT VM TO CONFIRM",
    "Notes": "opening may 24 or 25-mid september (8 or 15); ",
    "confirmed": "CQ"
  },
  {
    "Region": "North Bay/Wine Country",
    "Name": "The Farmer's Market at Marin Country Mart",
    "Address": "2257 Larkspur Landing Cir, Larkspur, CA 94939",
    "Lat": 37.9471886,
    "Lng": "-122.5091383",
    "Website": "http://marincountrymart.com/farmers-market",
    "Season": "Year-round",
    "Hours": "Saturday, 9 a.m.-2 p.m.",
    "confirmed": "CQ"
  },
  {
    "Region": "North Bay/Wine Country",
    "Name": "Santa Rosa Downtown Market",
    "Address": "637 1st St, Santa Rosa, CA 95404",
    "Lat": 38.4388524,
    "Lng": "-122.7117489",
    "Website": "http://www.wednesdaynightmarket.org/",
    "Season": "May-August",
    "Hours": "Wednesday, 5-8:30 p.m.",
    "Notes": "May 3-August 16",
    "confirmed": "CQ"
  },
  {
    "Region": "North Bay/Wine Country",
    "Name": "Santa Rosa Community Farmers' Market - Veteran's Building",
    "Address": "1351 Maple Avenue Santa Rosa, CA 95404",
    "Lat": 38.4343407,
    "Lng": "-122.7011596",
    "Website": "http://communityfarmersmarkets.com/markets/",
    "Season": "Year-round",
    "Hours": "Wednesday, 9 a.m.-1 p.m.; Saturday, 8:30 a.m.-1 p.m.",
    "Notes": "Run by Agricultural Community Events Farmers’ Markets",
    "confirmed": "CQ"
  },
  {
    "Region": "North Bay/Wine Country",
    "Name": "Cotati Community Farmers Market",
    "Address": "La Plaza Park, Cotati, CA 94931",
    "Lat": 38.3272563,
    "Lng": "-122.7072547",
    "Website": "http://communityfarmersmarkets.com/markets/",
    "Season": "June-August",
    "Hours": "Thursday, 4:30-7:30",
    "Notes": "Run by Agricultural Community Events Farmers’ Markets; 6/1-8/31",
    "confirmed": "CQ"
  },
  {
    "Region": "North Bay/Wine Country",
    "Name": "Windsor Certified Farmers Market",
    "Address": "701 McClelland Dr, Windsor, CA 95492",
    "Lat": 38.548817,
    "Lng": "-122.814914",
    "Website": "http://www.windsorfarmersmarket.com/",
    "Season": "Sunday: April-Mid-December; Thursday, Mid-June-August",
    "Hours": "Sunday, 10 a.m.-1 p.m.; Thursday, 5-8 p.m.",
    "confirmed": "CQ"
  },
  {
    "Region": "North Bay/Wine Country",
    "Name": "Cloverdale Certified Farmers Market",
    "Address": "N Cloverdale Blvd\nCloverdale, CA 95425",
    "Lat": 38.809925,
    "Lng": "-123.0204375",
    "Website": "http://cloverdalefarmersmarket.com/",
    "Season": "June-September",
    "Hours": "Friday, 6-9 p.m.",
    "confirmed": "CQ"
  },
  {
    "Region": "North Bay/Wine Country",
    "Name": "Calistoga Farmers Market",
    "Address": "1235 Washington Street, Calistoga CA 94515",
    "Lat": 38.5787614,
    "Lng": "-122.5799711",
    "Website": "http://www.calistogafarmersmarket.org/",
    "Season": "Year-round",
    "Hours": "Saturday, 9 a.m.-1 p.m.",
    "confirmed": "CQ"
  },
  {
    "Region": "North Bay/Wine Country",
    "Name": "Long Meadow Ranch Farmers Market",
    "Address": "738 Main St, St Helena, CA 94574",
    "Lat": 38.5010656,
    "Lng": "-122.4631853",
    "Website": "http://www.longmeadowranch.com/things-to-do/farmers-market",
    "Season": "Saturday & Sunday:Year-round;\nFriday: November-April",
    "Hours": "Saturday & Sunday, 10 a.m.-2 p.m.; Friday, 9 a.m.-1 p.m.",
    "confirmed": "CQ"
  }
]