[
  {
    "Region": "San Francisco",
    "Name": "Ferry Plaza Farmers Market",
    "Address": "1 Ferry Building, San Francisco, CA 94111",
    "Lat": 37.795274,
    "Lng": "-122.393421",
    "Website": "http://www.cuesa.org/",
    "Season": "Year-round",
    "Hours": "Saturday, 8 a.m.-2 p.m.; Tuesdays & Thursdays, 10 a.m.-2 p.m.",
    "Days": "Saturday Tuesday Thursday",
    "Size": "Large",
    "Special features": "Fresh produce; prepared foods; view of the Bay; free cooking demonstrations and other events; a free veggie valet service is available during market hours to store your market purchases ",
    "Notes": "Run by CUESA",
    "CQ'd": "YES",
    "FILE ART?": "Lots to choose from in Merlin"
  },
  {
    "Region": "San Francisco",
    "Name": "San Francisco Farmers' Market at Crocker Galleria",
    "Address": "50 Post St., San Francisco, CA 94104",
    "Lat": 37.7895344,
    "Lng": "-122.4030516",
    "Website": "http://www.cafarmersmkts.com/san-francisco-farmers-market-at-crocker-galleria/",
    "Season": "Year-round",
    "Hours": "Thursday, 10 a.m.-2 p.m.",
    "Days": "Thursday",
    "Size": "Small",
    "Special features": "Fresh produce; prepared foods",
    "Notes": "Run by California Farmers' Markets Association; 17 farmstands; ",
    "CQ'd": "YES",
    "FILE ART?": "https://hearst.merlinone.net/MX/Profiles/en/default/#/main/single/e08c6389-3fb7-46c2-bd14-9b301e71f303 ; https://hearst.merlinone.net/MX/Profiles/en/default/#/main/single/e08c6389-3fb7-46c2-bd14-9b301e71f303"
  },
  {
    "Region": "San Francisco",
    "Name": "Fort Mason Farmers' Market",
    "Address": "Fort Mason Center, San Francisco, CA 94109",
    "Lat": 37.8052746,
    "Lng": "-122.431931",
    "Website": "http://www.cafarmersmkts.com/fort-mason-center-farmers-market/",
    "Season": "Year-round",
    "Hours": "Sunday, 9:30 a.m.-1:30 p.m.",
    "Days": "Sunday",
    "Size": "Medium",
    "Special features": "Fresh produce; prepared foods",
    "Notes": "Run by California Farmers' Markets Association; 35 farmstands",
    "CQ'd": "YES",
    "FILE ART?": "??"
  },
  {
    "Region": "San Francisco",
    "Name": "Inner Sunset Farmers' Market",
    "Address": "1315 8th Ave., San Francisco, CA 94122",
    "Lat": 37.7637287,
    "Lng": "-122.4654274",
    "Website": "http://www.pcfma.org/",
    "Season": "Year-round",
    "Hours": "Sunday, 9 a.m.-1 p.m.",
    "Days": "Sunday",
    "Size": "Medium",
    "Special features": "Fresh produce; prepared foods",
    "Notes": "Run by PCFMA",
    "CQ'd": "YES",
    "FILE ART?": "No"
  },
  {
    "Region": "San Francisco",
    "Name": "Heart of the City Farmers' Market",
    "Address": "United Nations Plaza, San Francisco, CA 94102",
    "Lat": 37.7799923,
    "Lng": "-122.4137276",
    "Website": "http://heartofthecity-farmersmar.squarespace.com/about/",
    "Season": "Year-round",
    "Hours": "Sundays, 7 a.m.-5 p.m.; Wednesdays, 7 a.m.-5:30 p.m.",
    "Days": "Sunday Wednesday",
    "Size": "Large",
    "Special features": "Fresh produce; prepared foods",
    "Notes": "Since 1981",
    "CQ'd": "YES",
    "FILE ART?": "https://hearst.merlinone.net/MX/Profiles/en/default/#/main/single/92ea7a79-ea8d-494e-b8b8-beb8a5e5380f ;  "
  },
  {
    "Region": "San Francisco",
    "Name": "Noe Valley Farmers' Market",
    "Address": "3861 24th St., San Francisco, CA 94114",
    "Lat": 37.7514056,
    "Lng": "-122.4289997",
    "Website": "http://www.noevalleyfarmersmarket.com/",
    "Season": "Year-round",
    "Hours": "Saturday, 8 a.m.-1 p.m.",
    "Days": "Saturday",
    "Size": "Small",
    "Special features": "Fresh produce; prepared foods",
    "CQ'd": "YES",
    "FILE ART?": "https://hearst.merlinone.net/MX/Profiles/en/default/#/main/single/92ea7a79-ea8d-494e-b8b8-beb8a5e5380f ; https://hearst.merlinone.net/MX/Profiles/en/default/#/main/single/92ea7a79-ea8d-494e-b8b8-beb8a5e5380f"
  },
  {
    "Region": "San Francisco",
    "Name": "Mission Bay Farmers' Market at UCSF",
    "Address": "550 Gene Friend Way, San Francisco, CA 94158",
    "Lat": 37.7691473,
    "Lng": "-122.3903861",
    "Website": "http://www.pcfma.org/",
    "Season": "Year-round",
    "Hours": "Wednesday, 10 a.m.-2 p.m.",
    "Days": "Wednesday",
    "Size": "Small",
    "Special features": "Fresh produce; prepared foods",
    "Notes": "Run by PCFMA",
    "CQ'd": "YES",
    "FILE ART?": "No"
  },
  {
    "Region": "San Francisco",
    "Name": "Mission Community Market",
    "Address": "84 Bartlett St., San Francisco, CA 94110",
    "Lat": 37.7556763,
    "Lng": "-122.4196007",
    "Website": "http://missioncommunitymarket.org/",
    "Season": "March-November",
    "Months": "March April May June July August September October November",
    "Hours": "Thursday, 4-8 p.m.",
    "Days": "Thursday",
    "Size": "Small",
    "Special features": "Fresh produce; prepared foods; newly opened \"La Placita\" public space at the market features murals and partially covered shopping area",
    "CQ'd": "YES",
    "FILE ART?": "https://hearst.merlinone.net/MX/Profiles/en/default/#/main/single/669adfba-2e1e-4efa-8534-0f58cc1e1679 ; https://hearst.merlinone.net/MX/Profiles/en/default/#/main/single/669adfba-2e1e-4efa-8534-0f58cc1e1679 "
  },
  {
    "Region": "San Francisco",
    "Name": "Stonestown Farmers' Market",
    "Address": "3251 20th Ave., San Francisco, CA 94132",
    "Lat": 37.7278703,
    "Lng": "-122.4770819",
    "Website": "https://www.agriculturalinstitute.org/directory/listing-details/stonestown-market",
    "Season": "Year-round",
    "Hours": "Sunday, 9 a.m.-1 p.m.",
    "Days": "Sunday",
    "Size": "Large",
    "Special features": "Fresh produce; prepared foods; plentiful parking at Stonestown Mall",
    "Notes": "Run by Agricultural Institute of Marin; 65+ vendors",
    "CQ'd": "YES",
    "FILE ART?": "https://hearst.merlinone.net/MX/Profiles/en/default/#/main/single/5aff681c-d018-4aac-9f73-8b3a7bec87dc ; https://hearst.merlinone.net/MX/Profiles/en/default/#/main/single/5aff681c-d018-4aac-9f73-8b3a7bec87dc"
  },
  {
    "Region": "San Francisco",
    "Name": "Fillmore Farmers' Market",
    "Address": "1730 O'Farrell St., San Francisco, CA 94115",
    "Lat": 37.783649,
    "Lng": "-122.433157",
    "Website": "http://www.pcfma.org/",
    "Season": "Year-round",
    "Hours": "Saturday, 9 a.m.-1 p.m.",
    "Days": "Saturday",
    "Size": "Small",
    "Special features": "Fresh produce; prepared foods; live jazz every weekend in conjunction with the Fillmore Center",
    "Notes": "Run by PCFMA",
    "CQ'd": "YES",
    "FILE ART?": "No"
  },
  {
    "Region": "San Francisco",
    "Name": "SFSU Farmers' Market",
    "Address": "1600 Holloway Ave., San Francisco, CA 94132",
    "Lat": 37.721897,
    "Lng": "-122.4782094",
    "Website": "http://asisfsu.com/asi/farmer_market/",
    "Season": "Year-round",
    "Hours": "Thursday, 10 a.m.-3 p.m.",
    "Days": "Thursday",
    "Size": "Small",
    "Special features": "Fresh produce; prepared foods; located in front of the Humanities Building on the San Francisco State campus",
    "CQ'd": "YES",
    "FILE ART?": "No"
  },
  {
    "Region": "San Francisco",
    "Name": "Alemany Farmer's Market",
    "Address": "100 Alemany Blvd., San Francisco, CA 94110",
    "Lat": 37.7357188,
    "Lng": "-122.4099429",
    "Website": "http://sfgov.org/realestate/alemany-farmers-market",
    "Season": "Year-round",
    "Hours": "Saturday, 6 a.m.-2:30 p.m.",
    "Days": "Saturday",
    "Size": "Large",
    "Special features": "Fresh produce; prepared foods; founded in 1943, Alemany was the first farmers' market in California; it's also the only city-run farmers’ market in San Francisco",
    "Notes": "It is the only City-run farmers’ market in San Francisco.",
    "CQ'd": "YES",
    "FILE ART?": "Lots to choose from"
  },
  {
    "Region": "San Francisco",
    "Name": "Clement Street Farmers' Market",
    "Address": "200 Clement St., San Francisco, CA 94118,",
    "Lat": 37.7832733,
    "Lng": "-122.4614084",
    "Website": "https://www.agriculturalinstitute.org/directory/listing-details/clement-st",
    "Season": "Year-round",
    "Hours": "Sunday, 9 a.m.-2 p.m.",
    "Days": "Sunday",
    "Size": "Large",
    "Special features": "Fresh produce; prepared foods",
    "Notes": "Run by Agricultural Institute of Marin; 50+ vendors",
    "CQ'd": "YES",
    "FILE ART?": "https://hearst.merlinone.net/MX/Profiles/en/default/#/main/single/5a34f39c-2a17-46af-868c-d82f69fe54af"
  },
  {
    "Region": "San Francisco",
    "Name": "Castro Farmers' Market",
    "Address": "288 Noe St., San Francisco, CA 94414",
    "Lat": 37.7645065,
    "Lng": "-122.433426",
    "Website": "http://www.pcfma.org/",
    "Season": "March-November",
    "Months": "March April May June July August September October November",
    "Hours": "Wednesday, 4-7 p.m.",
    "Days": "Wednesday",
    "Size": "Medium",
    "Special features": "Fresh produce; prepared foods; live music",
    "Notes": "Run by PCFMA; 22 producers with more to come in May-- 8 non ag",
    "CQ'd": "YES",
    "FILE ART?": "No"
  },
  {
    "Region": "San Francisco",
    "Name": "Divisadero Farmers' Market",
    "Address": "700 Divisadero St., San Francisco, CA 94117",
    "Lat": 37.7759529,
    "Lng": "-122.4379591",
    "Website": "http://www.pcfma.org/",
    "Season": "Year-round",
    "Hours": "Sunday, 10 a.m.-2 p.m.",
    "Days": "Sunday",
    "Size": "Medium",
    "Special features": "Fresh produce; prepared foods",
    "Notes": "Run by PCFMA",
    "CQ'd": "YES",
    "FILE ART?": "https://hearst.merlinone.net/MX/Profiles/en/default/#/main/single/81106bce-871f-434a-8e65-7ecab06a55ae"
  },
  {
    "Region": "San Francisco",
    "Name": "V.A. San Francisco Farmers' Market",
    "Address": "212 Veterans Dr., San Francisco, CA 94121",
    "Lat": 37.7815687,
    "Lng": "-122.5036785",
    "Website": "http://www.pcfma.org/",
    "Season": "Year-round",
    "Hours": "Wednesday, 10 a.m.-2 p.m.",
    "Days": "Wednesday",
    "Size": "Small",
    "Special features": "Held at the SF V.A. Medical Center; fresh produce; prepared foods",
    "Notes": "Run by PCFMA; 6 stand -- 4 farmers 2 non ag",
    "CQ'd": "YES",
    "FILE ART?": "No"
  },
  {
    "Region": "San Francisco",
    "Name": "Kaiser San Francisco Farmers' Market",
    "Address": "2425 Geary Blvd., San Francisco, CA 94115",
    "Lat": 37.7823277,
    "Lng": "-122.4432896",
    "Website": "http://www.pcfma.org/",
    "Season": "Year-round",
    "Hours": "Wednesday, 10 a.m.-2 p.m.",
    "Days": "Wednesday",
    "Size": "Small",
    "Special features": "Fresh produce; prepared foods (Note: Due to construction, the market is temporarily closed and scheduled to reopen May 10. Check website for updates.)",
    "Notes": "Run by PCFMA",
    "CQ'd": "YES",
    "FILE ART?": "No"
  },
  {
    "Region": "San Francisco",
    "Name": "UCSF Parnassus Farmers' Market",
    "Address": "505 Parnassus Ave., San Francisco, CA 94122",
    "Lat": 37.763453,
    "Lng": "-122.4579864",
    "Website": "https://campuslifeservices.ucsf.edu/retail/services/dine/farmers_market",
    "Season": "Year-round",
    "Hours": "Wednesday, 10 a.m.-3 p.m.",
    "Days": "Wednesday",
    "Size": "Small",
    "Special features": "Fresh produce; farmer operated",
    "Notes": "Run by PCFMA",
    "CQ'd": "YES",
    "FILE ART?": "No"
  }
]