[
  {
    "Region": "Peninsula/South Bay",
    "Name": "Berryessa Farmers' Market",
    "Address": "1376 Piedmont Rd, San Jose, CA  95132",
    "Lat": 37.4021812,
    "Lng": "-121.8473788",
    "Website": "http://www.pcfma.org/",
    "Season": "Year-round",
    "Hours": "Saturday, 9 a.m.-1 p.m.",
    "Notes": "Run by PCFMA",
    "confirmed": "CQ"
  },
  {
    "Region": "Peninsula/South Bay",
    "Name": "Portola Valley Farmers' Market",
    "Address": " 765 Portola Rd, Portola Valley, CA 94028",
    "Lat": 37.3819812,
    "Lng": "-122.2290006",
    "Website": "http://www.pvfarmersmarket.com",
    "Season": "Year-round",
    "Hours": "Thursday, 2-6 p.m. (2-5 p.m. in the winter)",
    "confirmed": "CQ"
  },
  {
    "Region": "Peninsula/South Bay",
    "Name": "Cambrian Park - San Jose",
    "Address": "Camden Ave & Union Ave, San Jose, CA 95124",
    "Lat": 37.26391,
    "Lng": "-121.932103",
    "Website": "http://uvfm.org/cambrian-park-wednesday/",
    "Season": "May-September",
    "Hours": "Wednesday, 4-8 p.m.",
    "Notes": "Run by Urban Village Farmers Market Association",
    "confirmed": "CQ"
  },
  {
    "Region": "Peninsula/South Bay",
    "Name": "Santa Clara Farmers' Market",
    "Address": "Homestead Rd & Jackson St, Santa Clara, CA 95050",
    "Lat": 37.3480089,
    "Lng": "-121.9464282",
    "Website": "http://uvfm.org/santa-clara-saturdays/",
    "Season": "Year-round",
    "Hours": "Saturday, 9 a.m.-1 p.m.",
    "Notes": "Run by Urban Village Farmers Market Association",
    "confirmed": "CQ"
  },
  {
    "Region": "Peninsula/South Bay",
    "Name": "Sunnyvale Farmers' Market",
    "Address": "E Washington Ave & S Murphy Ave, Sunnyvale, CA 94086",
    "Lat": 37.3759995,
    "Lng": "-122.0304158",
    "Website": "http://uvfm.org/sunnyvale-saturday/",
    "Season": "Year-round",
    "Hours": "Saturday, 9 a.m.-1 p.m.",
    "Notes": "Run by Urban Village Farmers Market Association",
    "confirmed": "CQ"
  },
  {
    "Region": "Peninsula/South Bay",
    "Name": "Willow Glen - San Jose",
    "Address": "1165 Lincoln Ave, San Jose, CA 95125",
    "Lat": 37.3073027,
    "Lng": "-121.9004523",
    "Website": "http://uvfm.org/willow-glen-saturday/",
    "Season": "June-October",
    "Hours": "Saturday, 9 a.m.-1 p.m.",
    "Notes": "Run by Urban Village Farmers Market Association",
    "confirmed": "CQ"
  },
  {
    "Region": "Peninsula/South Bay",
    "Name": "Palo Alto - California Ave.",
    "Address": "El Camino Real & California Ave, Palo Alto, CA 94306",
    "Lat": 37.425161,
    "Lng": "-122.14546",
    "Website": "http://uvfm.org/palo-alto-sundays/",
    "Season": "Year-round",
    "Hours": "Sunday, 9 a.m.-1 p.m.",
    "Notes": "Run by Urban Village Farmers Market Association",
    "confirmed": "CQ"
  },
  {
    "Region": "Peninsula/South Bay",
    "Name": "Daly City Farmers' Market at Serramonte",
    "Address": "133 Serramonte Center, Daly City, CA 94015",
    "Lat": 37.6704999,
    "Lng": "-122.471026",
    "Website": "http://www.cafarmersmkts.com/daly-city-farmers-market",
    "Season": "Year-round",
    "Hours": "Thursday & Saturday, 9 a.m.-1 p.m.",
    "Special features": "55 farmstands; oldest market in the CFMA system",
    "Notes": "Run by California Farmers' Markets Association",
    "confirmed": "CQ"
  },
  {
    "Region": "Peninsula/South Bay",
    "Name": "25th Ave. Farmers' Market",
    "Address": "194 W 25th Ave, San Mateo, CA 94403",
    "Lat": 37.5428271,
    "Lng": "-122.3095628",
    "Website": "http://www.pcfma.org/",
    "Season": "May-October",
    "Hours": "Tuesday, 4-7:30 p.m.",
    "Notes": "Run by PCFMA",
    "confirmed": "CQ"
  },
  {
    "Region": "Peninsula/South Bay",
    "Name": "Alum Rock Farmers' Market ",
    "Address": "1-, 23 N White Rd, San Jose, CA 95127",
    "Lat": 37.3672783,
    "Lng": "-121.8293401",
    "Website": "http://www.pcfma.org/",
    "Season": "Year-round",
    "Hours": "Sunday, 8 a.m.-1 p.m.",
    "Notes": "Run by PCFMA",
    "confirmed": "CQ"
  },
  {
    "Region": "Peninsula/South Bay",
    "Name": "Belmont Farmers' Market",
    "Address": "1299 El Camino Real,Belmont, CA  94002",
    "Lat": 37.5187164,
    "Lng": "-122.2737843",
    "Website": "http://www.pcfma.org/",
    "Season": "Year-round",
    "Hours": "Sunday, 9 a.m.-1 p.m.",
    "Notes": "Run by PCFMA",
    "confirmed": "CQ"
  },
  {
    "Region": "Peninsula/South Bay",
    "Name": "Downtown San Jose Farmers' Market",
    "Address": "1 N San Pedro St., San Jose, CA  95110",
    "Lat": 37.3350977,
    "Lng": "-121.8928687",
    "Website": "http://www.pcfma.org/",
    "Season": "May-October",
    "Hours": "Friday, 10 a.m.-2 p.m.",
    "Special features": "Started in 1993",
    "Notes": "Run by PCFMA",
    "confirmed": "CQ"
  },
  {
    "Region": "Peninsula/South Bay",
    "Name": "Evergreen Farmers' Market - San Jose",
    "Address": "4035 Evergreen Village Square,San Jose, CA,95135",
    "Lat": 37.3131982,
    "Lng": "-121.7738186",
    "Website": "http://www.pcfma.org/",
    "Season": "Year-round",
    "Hours": "Wednesday, 9 a.m.-1 p.m.; Sunday, 9 a.m.-1 p.m.",
    "Notes": "Run by PCFMA",
    "confirmed": "CQ"
  },
  {
    "Region": "Peninsula/South Bay",
    "Name": "Kaiser Redwood City Farmers' Market",
    "Address": "1150 Maple St., Redwood City, CA  94063",
    "Lat": 37.4904043,
    "Lng": "-122.2215697",
    "Website": "http://www.pcfma.org/",
    "Season": "April-November",
    "Hours": "Wednesday, 10 a.m.-2 p.m.",
    "Special features": "Starts up 4/5",
    "Notes": "Run by PCFMA",
    "confirmed": "CQ"
  },
  {
    "Region": "Peninsula/South Bay",
    "Name": "Kaiser San Jose Farmers' Market",
    "Address": "270 International Circle, San Jose, CA  95119",
    "Lat": 37.240672,
    "Lng": "-121.8005278",
    "Website": "http://www.pcfma.org/",
    "Season": "Year-round",
    "Hours": "Friday, 10 a.m.-2 p.m.",
    "Notes": "Run by PCFMA",
    "confirmed": "CQ"
  },
  {
    "Region": "Peninsula/South Bay",
    "Name": "Kaiser Santa Clara Farmers' Market",
    "Address": "700 Lawrence Expy,Santa Clara, CA,95051",
    "Lat": 37.3358952,
    "Lng": "-121.99833",
    "Website": "http://www.pcfma.org/",
    "Season": "Year-round",
    "Hours": "Friday, 8:30 a.m.-1:30 p.m.",
    "Notes": "Run by PCFMA",
    "confirmed": "CQ"
  },
  {
    "Region": "Peninsula/South Bay",
    "Name": "Milpitas Farmers' Market",
    "Address": "882 Great Mall Drive,Milpitas, CA,95035",
    "Lat": 37.4123723,
    "Lng": "-121.8966559",
    "Website": "http://www.pcfma.org/",
    "Season": "Year-round",
    "Hours": "Sunday, 8 a.m.-1 p.m.",
    "Notes": "Run by PCFMA",
    "confirmed": "CQ"
  },
  {
    "Region": "Peninsula/South Bay",
    "Name": "College of San Mateo Farmers' Market",
    "Address": "1700 W Hillsdale Blvd,San Mateo, CA,94402",
    "Lat": 37.5350511,
    "Lng": "-122.335123",
    "Website": "http://www.pcfma.org/",
    "Season": "Year-round",
    "Hours": "Saturday, 9 a.m.-1 p.m.",
    "Notes": "Run by PCFMA",
    "confirmed": "CQ"
  },
  {
    "Region": "Peninsula/South Bay",
    "Name": "Santa Clara VMC Farmers' Market - San Jose",
    "Address": "771 Turner Dr,San Jose, CA,95128",
    "Lat": 37.3136051,
    "Lng": "-121.9346813",
    "Website": "http://www.pcfma.org/",
    "Season": "May-November",
    "Hours": "Wednesday, 10 a.m.-2 p.m.",
    "Special features": "Starts back up 5/10",
    "Notes": "Run by PCFMA",
    "confirmed": "CQ"
  },
  {
    "Region": "Peninsula/South Bay",
    "Name": "Santa Teresa Farmers' Market - San Jose",
    "Address": "6104 Camino Verde Dr,San Jose, CA,95119",
    "Lat": 37.2367192,
    "Lng": "-121.8007727",
    "Website": "http://www.pcfma.org/",
    "Season": "Year-round",
    "Hours": "Saturday, 10 a.m.-2 p.m.",
    "Notes": "Run by PCFMA",
    "confirmed": "CQ"
  },
  {
    "Region": "Peninsula/South Bay",
    "Name": "South San Francisco Farmers' Market",
    "Address": "781 Tennis Drive,South San Francisco, CA,94080",
    "Lat": 37.6541692,
    "Lng": "-122.4267856",
    "Website": "http://www.pcfma.org/",
    "Season": "May-October",
    "Hours": "Saturday, 10 a.m.-2 p.m.",
    "Special features": "Starts back up 5/6",
    "Notes": "Run by PCFMA",
    "confirmed": "CQ"
  },
  {
    "Region": "Peninsula/South Bay",
    "Name": "V.A. Palo Alto Farmers' Market",
    "Address": "3801 Miranda Ave., Palo Alto, CA  94304",
    "Lat": 37.4056056,
    "Lng": "-122.1401885",
    "Website": "http://www.pcfma.org/",
    "Season": "April-October",
    "Hours": "Wednesday, 10 a.m.-2 p.m.",
    "Special features": "Starts back 4/12",
    "Notes": "Run by PCFMA",
    "confirmed": "CQ"
  },
  {
    "Region": "Peninsula/South Bay",
    "Name": "Los Gatos Farmers' Market",
    "Address": "Town Park Plaza on Main Street & N. Santa Cruz Avenue",
    "Lat": 37.2216944,
    "Lng": "-121.9839077",
    "Website": "http://www.cafarmersmkts.com/losgatos-farmers-market",
    "Season": "Year-round",
    "Hours": "Sunday, 9 a.m.-1 p.m.",
    "Special features": "40+ farmers & vendors",
    "Notes": "Run by California Farmers' Markets Association",
    "confirmed": "CQ"
  },
  {
    "Region": "Peninsula/South Bay",
    "Name": "San Jose Blossom Hill Farmers Market",
    "Address": "Ohlone/Chynoweth VTA Station, Santa Teresa Blvd. & Hwy 85/87 junction",
    "Lat": 37.25625,
    "Lng": "-121.860069",
    "Website": "http://www.cafarmersmkts.com/blossom-hill-san-jose-farmers-market",
    "Season": "Year-round",
    "Hours": "Sunday, 9 a.m.-1 p.m.",
    "Special features": "served the neighborhood for 17 years; peak season has over 40 growers/food makers selling there.",
    "Notes": "Run by California Farmers' Markets Association",
    "confirmed": "CQ"
  },
  {
    "Region": "Peninsula/South Bay",
    "Name": "Downtown Los Altos Farmers' Market",
    "Address": "2nd St, Los Altos, CA 94022",
    "Lat": 37.3782774,
    "Lng": "-122.1166698",
    "Website": "http://www.cafarmersmkts.com/los-altos-farmers-market",
    "Season": "May-September",
    "Hours": "Thursday, 4-8 p.m.",
    "Special features": " Hosted by the Los Altos Village Association and the City of Los Altos",
    "Notes": "Run by California Farmers' Markets Association",
    "confirmed": "CQ"
  },
  {
    "Region": "Peninsula/South Bay",
    "Name": "Morgan Hill Farmers' Market",
    "Address": "Caltrain Station, 3rd St. & Depot St\nMorgan Hill, CA 95037",
    "Lat": 37.1294008,
    "Lng": "-121.6507477",
    "Website": "http://www.cafarmersmkts.com/morgan-hill-farmers-market",
    "Season": "Year-round",
    "Hours": "Saturday, 9 a.m.-1 p.m.",
    "Special features": "35+ vendors",
    "Notes": "Run by California Farmers' Markets Association",
    "confirmed": "CQ"
  },
  {
    "Region": "Peninsula/South Bay",
    "Name": "Mountain View Farmers' Market",
    "Address": "Mountain View Caltrain Station, 600 West Evelyn Ave., Mountain View, CA 94041",
    "Lat": 37.3945523,
    "Lng": "-122.0760376",
    "Website": "http://www.cafarmersmkts.com/mountain-view-farmers-market",
    "Season": "Year-round",
    "Hours": "Sunday, 9 a.m.-1 p.m.",
    "Special features": "3rd largest market in the state; 80+ vendors; was voted Top 5 in the Nation by American Farmland Trusts’ Favorite Farmers’ Market Contest",
    "Notes": "Run by California Farmers' Markets Association",
    "confirmed": "CQ"
  },
  {
    "Region": "Peninsula/South Bay",
    "Name": "Saratoga Farmers' Market",
    "Address": "West Valley College, Parking Lot 3, 14000 Fruitvale Ave, Saratoga, CA 95070",
    "Lat": 37.265481,
    "Lng": "-122.012595",
    "Website": "http://www.cafarmersmkts.com/saratoga-farmers-market",
    "Season": "Year-round",
    "Hours": "Saturday, 9 a.m.-1 p.m.",
    "Special features": "50+ vendors",
    "Notes": "Run by California Farmers' Markets Association",
    "confirmed": "CQ"
  },
  {
    "Region": "Peninsula/South Bay",
    "Name": "Menlo Park Farmers' Market",
    "Address": "1001 Chestnut St, # 1099\nMenlo Park, CA 94025",
    "Lat": 37.4509211,
    "Lng": "-122.1834746",
    "Website": "https://www.facebook.com/MenloParkFarmersMarket/",
    "Season": "Year-round",
    "Hours": "Sunday, 9 a.m.-1 p.m.",
    "Notes": "Sponsored by the local LIONS Club",
    "confirmed": "CQ"
  },
  {
    "Region": "Peninsula/South Bay",
    "Name": "Burlingame Fresh Market",
    "Address": "Park Road at Burlingame Avenue \nBurlingame, CA 94010 ",
    "Lat": 37.5785344,
    "Lng": "-122.3471144",
    "Website": "http://www.burlingamechamber.org/burlingame-events/burlingame-fresh-market/",
    "Season": "Sunday: Year-round; Thursday: May-October",
    "Hours": "Sunday, 9-1:30 p.m.; Thursday, 3-7 p.m.",
    "confirmed": "CQ"
  },
  {
    "Region": "Peninsula/South Bay",
    "Name": "Downtown Palo Alto Farmers' Market",
    "Address": "601-699 Gilman St, Palo Alto, CA 94301",
    "Lat": 37.4452793,
    "Lng": "-122.1590522",
    "Website": "http://pafarmersmarket.org/",
    "Season": "May-December",
    "Hours": "Saturday, 8 a.m.-12 p.m.",
    "confirmed": "CQ"
  },
  {
    "Region": "Peninsula/South Bay",
    "Name": "Brisbane Farmers' Market",
    "Address": "11 Old County Rd, Brisbane, CA 94005",
    "Lat": 37.6849481,
    "Lng": "-122.4009184",
    "Website": "http://www.wcfma.org/brisbane.html",
    "Season": "Year-round",
    "Hours": "Thursday, 2:30-6:30 p.m.",
    "Notes": "Run by West Coast Farmers' Market Association",
    "confirmed": "CQ"
  },
  {
    "Region": "Peninsula/South Bay",
    "Name": "Stanford Farmers' Market",
    "Address": "459 Lagunita Dr.\nStanford CA 94305",
    "Lat": 37.4243331,
    "Lng": "-122.1708562",
    "Website": "http://www.wcfma.org/stanford.html",
    "Season": "Year-round",
    "Hours": "Tuesday, 10 a.m.-2 p.m.",
    "Notes": "Run by West Coast Farmers' Market Association",
    "confirmed": "CQ"
  },
  {
    "Region": "Peninsula/South Bay",
    "Name": "Almaden Via Valiente Certified Farmers' Market",
    "Address": "6902 Almaden Expressway, San Jose, CA  94120",
    "Lat": 37.2212487,
    "Lng": "-121.8618848",
    "Website": "http://www.avca-sj.org/farmersmarket.html",
    "Season": "Year-round",
    "Hours": "Sunday, 9 a.m.-3 p.m.; Wednesday, 10 a.m.-3 p.m.",
    "Special features": "CONFIRM",
    "Notes": "Also a Joe market -- call after 12 p.m. on Thurs Joe Aliotti (831) 905-1407 ",
    "confirmed": "CQ"
  },
  {
    "Region": "Peninsula/South Bay",
    "Name": "San Jose - Samsung",
    "Address": "\n\n3655 N 1st St, San Jose, California 95134",
    "Lat": 37.4094279,
    "Lng": "-121.9462194",
    "Website": "http://www.wcfma.org/san-jose.html",
    "Season": "Year-round",
    "Hours": "Tuesday, 10 a.m.-2 p.m.",
    "Notes": "Run by West Coast Farmers' Market Association",
    "confirmed": "CQ"
  },
  {
    "Region": "Peninsula/South Bay",
    "Name": "Sunnyvale (Moffett Towers) Farmers' Market",
    "Address": "1100 Enterprise Way\nSunnyvale, CA  94089",
    "Lat": 37.4083675,
    "Lng": "-122.0365531",
    "Website": "http://www.wcfma.org/sunnyvale.html",
    "Season": "Year-round",
    "Hours": "Wednesday, 10 a.m.-2 p.m.",
    "Notes": "Run by West Coast Farmers' Market Association",
    "confirmed": "CQ"
  },
  {
    "Region": "Peninsula/South Bay",
    "Name": "Foster City (Peninsula Jewish Community Center) Farmers' Market",
    "Address": "800 Foster City Blvd, Foster City, CA 94404",
    "Lat": 37.5578841,
    "Lng": "-122.2671307",
    "Website": "http://www.wcfma.org/foster-city--jcc-.html",
    "Season": "CONFIRM",
    "Hours": "Wednesday, 9 a.m.-1 p.m.",
    "Notes": "Run by West Coast Farmers' Market Association",
    "confirmed": "CQ"
  },
  {
    "Region": "Peninsula/South Bay",
    "Name": "Foster City (Charter Square Shopping Center) Farmers' Market",
    "Address": "791 Beach Park Blvd, Foster City, CA 94404",
    "Lat": 37.5486006,
    "Lng": "-122.2651627",
    "Website": "http://www.wcfma.org/foster-city.html",
    "Season": "Year-round",
    "Hours": "Wednesday, 2:30-6:30 p.m.; Saturday, 9 a.m.-1 p.m.",
    "Notes": "Run by West Coast Farmers' Market Association",
    "confirmed": "CQ"
  },
  {
    "Region": "Peninsula/South Bay",
    "Name": "Cupertino (Cupertino Oaks Shopping Center) Farmers' Market",
    "Address": "21275 Stevens Creek Blvd, Cupertino, CA 95014",
    "Lat": 37.3237952,
    "Lng": "-122.0485335",
    "Website": "http://www.wcfma.org/cupertino.html",
    "Season": "Year-round",
    "Hours": "Sunday, 9 a.m.-1 p.m.",
    "Notes": "Run by West Coast Farmers' Market Association",
    "confirmed": "CQ"
  },
  {
    "Region": "Peninsula/South Bay",
    "Name": "Coast Side Farmers' Markets - Half Moon Bay",
    "Address": "225 Cabrillo Hwy N, Half Moon Bay, CA 94019",
    "Lat": 37.472382,
    "Lng": "-122.4352932",
    "Website": "http://www.coastsidefarmersmarkets.org/",
    "Season": "May-December",
    "Hours": "Saturday, 9 a.m.-1 p.m.",
    "Notes": "Run by Coast Side Farmers' Markets",
    "confirmed": "CQ"
  },
  {
    "Region": "Peninsula/South Bay",
    "Name": "Millbrae Certified Farmers Market",
    "Address": "240 Broadway Millbrae, CA 94030-2645",
    "Lat": 37.6003492,
    "Lng": "-122.3911286",
    "Website": "http://www.millbrae.com/index.php?page=8",
    "Season": "Year-round",
    "Hours": "Saturday, 8 a.m.-1 p.m.",
    "Special features": "CONFIRM",
    "Notes": "Run by the Chamber of Commerce",
    "confirmed": "CQ"
  },
  {
    "Region": "Peninsula/South Bay",
    "Name": "Pescadero Grown Certified Community Farmer's Market",
    "Address": "350 Stage Rd, Pescadero, 94060",
    "Lat": 37.254035,
    "Lng": "-122.382335",
    "Website": "http://pescaderogrown.org",
    "Season": "June-October",
    "Hours": "Thursday, 3-7 p.m.",
    "Notes": "Runs June 1-Nov. 2",
    "confirmed": "CQ"
  },
  {
    "Region": "Peninsula/South Bay",
    "Name": "Redwood City Kiwanis Farmers Market",
    "Address": "500 Arguello St, Redwood City, CA 94063\n",
    "Lat": 37.4876453,
    "Lng": "-122.2333807",
    "Website": "https://www.facebook.com/pg/Redwood-City-Kiwanis-Farmers-Market-278357422298854/about/?ref=page_internal",
    "Season": "April-November",
    "Hours": "Saturday, 8 a.m.-12 p.m.",
    "Notes": "oldest and the largest farmers' market on the Peninsula",
    "confirmed": "CQ"
  },
  {
    "Region": "Peninsula/South Bay",
    "Name": "Coast Side Farmers' Markets - Pacifica",
    "Address": "Rockaway Beach Ave\nPacifica, CA 94044",
    "Lat": 37.6059876,
    "Lng": "-122.4917772",
    "Website": "http://www.coastsidefarmersmarkets.org/",
    "Season": "May-December",
    "Hours": "Wednesday, 2:30-6:30 p.m.",
    "Notes": "Run by Coast Side' Farmers Markets",
    "confirmed": "CQ"
  },
  {
    "Region": "Peninsula/South Bay",
    "Name": "San Carlos Farmers' Market",
    "Address": "700 Laurel St, San Carlos, CA 94071",
    "Lat": 37.5049303,
    "Lng": "-122.259708",
    "Website": "https://www.facebook.com/pg/sancarlosfarmersmarket/about/?ref=page_internal",
    "Season": "Year-round",
    "Hours": "Sunday, 10 a.m.-2 p.m.",
    "Notes": "Run by San Carlos Chamber of Commerce/Good Roots FM",
    "confirmed": "CQ"
  },
  {
    "Region": "Peninsula/South Bay",
    "Name": "Campbell",
    "Address": "E Campbell Ave & S Central Ave, Campbell, CA 95008",
    "Lat": 37.2870581,
    "Lng": "-121.9435816",
    "Website": "http://uvfm.org/campbell-sundays/",
    "Season": "Year-round",
    "Hours": "Sunday, 9 a.m.-1 p.m.",
    "Notes": "Run by Urban Village Farmers Market Association",
    "confirmed": "CQ"
  },
  {
    "Region": "Peninsula/South Bay",
    "Name": "San Jose - Japantown San Jose Farmer's Market",
    "Address": "251-, 299 Jackson St, San Jose, CA 95112",
    "Lat": 37.3494911,
    "Lng": "-121.8932969",
    "Website": "http://www.japantownsanjose.org/market.html",
    "Season": "Year-round",
    "Hours": "Sunday, 8:30 a.m.-12 p.m.",
    "Notes": "Run by Japantown Business Association",
    "confirmed": "CQ"
  },
  {
    "Region": "Peninsula/South Bay",
    "Name": "Kaiser Santa Teresa Farmers' Market",
    "Address": "Santa Teresa Blvd and Camino Verde\nSanta Teresa, CA 95119",
    "Lat": 37.2369352,
    "Lng": "-121.8010963",
    "Website": "https://www.facebook.com/pg/SantaTeresaFarmersMarket/about/?ref=page_internal",
    "Season": "Year-round",
    "Hours": "Saturday, 10 a.m.-2 p.m.",
    "Notes": "Run by PCFMA",
    "confirmed": "CQ"
  },
  {
    "Region": "Peninsula/South Bay",
    "Name": "East Palo Alto Community Farmers Market",
    "Address": "1885 Bay Road, East Palo Alto, CA 94303",
    "Lat": 37.4729298,
    "Lng": "-122.1324906",
    "Website": "http://www.collectiveroots.org/farmers-market/",
    "Season": "April-November",
    "Hours": "Wednesday, 11 a.m.-2 p.m.",
    "Notes": "Run by Collective Roots; 4/19-11/15/17",
    "confirmed": "CQ"
  },
  {
    "Region": "Peninsula/South Bay",
    "Name": "El Mercado Popular Farmers Market",
    "Address": "344 Tully Road, San Jose, CA  95111",
    "Lat": 37.3024111,
    "Lng": "-121.8535476",
    "Season": "Year-round",
    "Hours": "Sunday & Wednesday, 3-10 p.m.",
    "Notes": "CONFIRM"
  },
  {
    "Region": "Peninsula/South Bay",
    "Name": "Saratoga Village Farmers Market",
    "Address": "14485 Big Basin Way\nSaratoga, CA 95070",
    "Lat": 37.2576396,
    "Lng": "-122.0336529",
    "Website": "https://www.facebook.com/SaratogaVillageFarmersMarket/",
    "Season": "Year-round",
    "Hours": "Wednesday, 1:30-6 p.m.",
    "confirmed": "CQ"
  },
  {
    "Region": "Peninsula/South Bay",
    "Name": "Facebook Farmers' Market",
    "Address": "1 Hacker Way Lot 15 Menlo Park, CA 94025",
    "Lat": 37.4845903,
    "Lng": "-122.1479168",
    "Season": "May-October",
    "Hours": "Second Saturday of the month, 12-5 p.m.",
    "Notes": "Good Roots corporate farmers' market event company running; per GR rep, starts May 13 & will run 2nd Saturday of each month - October, from 12-5 p.m.; spoke with Nile on 3/29, who mentioned his company was taking over market.",
    "confirmed": "previously in touch with Jamil Walker <jamilw@fb.com> to confirm market starting back up; em 3/29 to check on status. S"
  }
]